{
  "success": true,
  "content": {
    "scheduleList": [
      {
      "name": "去长安",
      "date": "2018-8-12",
      "longitude": "",
      "latitude":"",
      "address":"重庆"
    },
      {
      "name": "去建设",
      "date": "2018-8-12",
      "longitude": "",
      "latitude":"",
      "address":"重庆"
    },

      {
        "name": "去长安",
        "date": "2018-8-28",
        "longitude": "",
        "latitude":"",
        "address":"重庆"
      },
      {
        "name": "去长安",
        "date": "2018-8-28",
        "longitude": "",
        "latitude":"",
        "address":"重庆"
      },
      {
        "name": "去长安",
        "date": "2018-8-28",
        "longitude": "",
        "latitude":"",
        "address":"重庆"
      },
      {
        "name": "去长安",
        "date": "2018-8-28",
        "longitude": "",
        "latitude":"",
        "address":"重庆"
      },
      {
        "name": "去长安",
        "date": "2018-8-28",
        "longitude": "",
        "latitude":"",
        "address":"重庆"
      },
      {
        "name": "去长安",
        "date": "2018-8-28",
        "longitude": "",
        "latitude":"",
        "address":"重庆"
      },
      {
        "name": "去长安",
        "date": "2018-8-28",
        "longitude": "",
        "latitude":"",
        "address":"重庆"
      },
      {
        "name": "去长安",
        "date": "2018-8-28",
        "longitude": "",
        "latitude":"",
        "address":"重庆"
      },

      {
        "name": "去长安",
        "date": "2018-8-28",
        "longitude": "",
        "latitude":"",
        "address":"重庆"
      },
      {
        "name": "去长安",
        "date": "2018-8-28",
        "longitude": "",
        "latitude":"",
        "address":"重庆"
      },
      {
        "name": "去长安",
        "date": "2018-9-28",
        "longitude": "",
        "latitude":"",
        "address":"重庆"
      },
      {
        "name": "去长安",
        "date": "2018-7-28",
        "longitude": "",
        "latitude":"",
        "address":"重庆"
      }
    ]
  }
}